[{"Name":"London Heathrow Airport, Southampton Road West, Harmondsworth, London Borough of Hillingdon, London, Greater London, England, TW6 3QY, United Kingdom","Latitude":51.4677705,"Longitude":-0.4590821416},{"Name":"Gatwick Airport, Station Approach Road, Crawley, West Sussex, South East, England, RH6 0RD, United Kingdom","Latitude":51.1567237,"Longitude":-0.1610188},{"Name":"Schiphol Airport, Jan Dellaertplein, Schiphol, Haarlemmermeer, North Holland, Netherlands, 1118AX, The Netherlands","Latitude":52.309523,"Longitude":4.7621813},{"Name":"London City Airport, Parker Street, Silvertown, London Borough of Newham, London, Greater London, England, E16 2DW, United Kingdom","Latitude":51.5042655,"Longitude":0.0474769239},{"Name":"Manchester Airport, Rivermead Avenue, Timperley, Trafford, Greater Manchester, North West England, England, M90 1QX, United Kingdom","Latitude":53.35034205,"Longitude":-2.2803692527}]